[
    {
      "img": "images/img1.png",
      "name": "Макдоналдс — Газетный",
      "desc1": "₽₽ • Бургеры",
      "desc2": "35 - 45 мин",
      "coords": {
      "lat": "55.758965",
      "lng": "37.610619"
      }
    },
    {
      "img": "images/img2.png",
      "name": "DimSum & Co — ЦДМ",
      "desc1": "₽ • Японская • Китайская • Азиатская",
      "desc2": "15 - 25 мин",
      "coords": {
        "lat": "55.755471",
        "lng": "37.613848"
        }

    },
    {
      "img": "images/img3.png",
      "name": "ДвижОК — Манежная",
      "desc1": "₽ • Американская • Европейская",
      "desc2": "45 - 55 мин",
      "coords": {
        "lat": "55.757124",
        "lng": "37.615564"
        }
    },
    {
      "img": "images/img4.png",
      "name": "НЯ — NHA",
      "desc1": "₽₽ • Вьетнамская",
      "desc2": "30 - 40 мин",
      "coords": {
        "lat": "55.762267",
        "lng": "37.612232"
        }
    },
    {
      "img": "images/img5.png",
      "name": "Точка Дзы — Цветной",
      "desc1": "₽₽ • Вьетнамская",
      "desc2": "15 - 30 мин",
      "coords": {
        "lat": "55.769847",
        "lng": "37.620843"
        }
    },
    {
      "img": "images/img6.png",
      "name": "Cinnabon",
      "desc1": "₽ • Выпечка • Десерты • Капкейки",
      "desc2": "40 - 50 мин",
      "coords": {
        "lat": "55.772993",
        "lng": "37.600161"
        }
    },
    {
      "img": "images/img7.png",
      "name": "PIZZELOVE",
      "desc1": "₽₽ • Пицца",
      "desc2": "25 - 45 мин",
      "coords": {
        "lat": "55.767699",
        "lng": "37.605502"
        }
    },
    {
      "img": "images/img8.png",
      "name": "Zю кафе — Тверская",
      "desc1": "₽₽ • Японская",
      "desc2": "20 - 30 мин",
      "coords": {
        "lat": "55.764627",
        "lng": "37.606514"
        }
    },
    {
      "img": "images/img9.png",
      "name": "Bar BQ Cafe — Манежная",
      "desc1": "₽₽₽ • Европейская",
      "desc2": "15 - 25 мин",
      "coords": {
        "lat": "55.756353",
        "lng": "37.615641"
        }
      
    }
  ]
  